[
	{
		"name": "Palau Güell",
		"opening_hours": {
			"open_now": false
		},
		"type": "museum",
		"address": "Carrer Nou de la Rambla, 3-5, Barcelona",
		"rating": 4.5
	},
	{
		"name": "El Club de la Hamburguesa",
		"opening_hours": {
			"open_now": true
		},
		"type": "restaurant",
		"address": "Carrer de Valldonzella, 3, Barcelona",
		"rating": 4.1,
		"price_level": 1
	},
	{
		"name": "Costa Breve",
		"opening_hours": {
			"open_now": true
		},
		"type": "night_club",
		"address": "Carrer d'Aribau, 230, Barcelona",
		"rating": 3.1
	},
	{
		"name": "G-Star",
		"opening_hours": {
			"open_now": false
		},
		"type": "store",
		"address": "Rambla de Catalunya, 78, Barcelona",
		"rating": 4
	},
	{
		"name": "Sutton Barcelona",
		"opening_hours": {
			"open_now": true
		},
		"type": "night_club",
		"address": "Carrer de Tuset, 13, Barcelona",
		"rating": 3.4
	},
	{
		"name": "Razzmatazz",
		"opening_hours": {
			"open_now": true
		},
		"type": "night_club",
		"address": "Carrer dels Almogàvers, 122, Barcelona",
		"rating": 4.2
	},	
	{
		"name": "La Tagliatella",
		"opening_hours": {
			"open_now": false
		},
		"type": "restaurant",
		"address": "Carrer de Mallorca, 266, Barcelona",
		"rating": 3.8,
		"price_level": 2
	},
	{
		"name": "Sala Apolo",
		"opening_hours": {
			"open_now": true
		},
		"type": "night_club",
		"address": "Carrer Nou de la Rambla, 113, Barcelona",
		"rating": 4.2
	},
	{
		"name": "Koy Shunka",
		"opening_hours": {
			"open_now": true
		},
		"type": "restaurant",
		"address": "Carrer d'en Copons, 7, Barcelona",
		"rating": 4.7,
		"price_level": 4
	},
	{
		"name": "Santa Eulalia",
		"opening_hours": {
			"open_now": false
		},
		"type": "store",
		"address": "Passeig de Gràcia, 93, Barcelona",
		"rating": 4.3
	},
	{
		"name": "ABaC Restaurant",
		"opening_hours": {
			"open_now": true
		},
		"type": "restaurant",
		"address": "Av. del Tibidabo, 1, Barcelona",
		"rating": 4.4,
		"price_level": 4
	},
	{
		"name": "Restaurante Lasarte",
		"opening_hours": {
			"open_now": false
		},
		"type": "restaurant",
		"address": "Carrer de Mallorca, 259, 08008 Barcelona",
		"rating": 4.7,
		"price_level": 4
	},
	{
		"name": "Restaurante Shunka",
		"opening_hours": {
			"open_now": true
		},
		"type": "restaurant",
		"address": "Calle Sagristans, 5, Barcelona",
		"rating": 4.6,
		"price_level": 3
	},
	{
		"name": "Paco Meralgo",
		"opening_hours": {
			"open_now": true
		},
		"type": "restaurant",
		"address": "Carrer de Muntaner, 171, Barcelona",
		"rating": 4.6,
		"price_level": 2
	},
	{
		"name": "Restaurante O'Retorno",
		"opening_hours": {
			"open_now": false
		},
		"type": "restaurant",
		"address": "Carrer Comte d'Urgell, 168, Barcelona",
		"rating": 4.4,
		"price_level": 2
	},
	{
		"name": "Emporio Armani",
		"opening_hours": {
			"open_now": false
		},
		"type": "store",
		"address": "Passeig de Gràcia, 6, Barcelona",
		"rating": 4
	},
	{
		"name": "BOTAFUMEIRO",
		"opening_hours": {
			"open_now": true
		},
		"type": "restaurant",
		"address": "Carrer Gran de Gràcia, 81, Barcelona",
		"rating": 4.3,
		"price_level": 4
	},
	{
		"name": "Museu d'Història de Catalunya",
		"opening_hours": {
			"open_now": true
		},
		"type": "museum",
		"address": "Palau de Mar, Plaça de Pau Vila, 3, Barcelona",
		"rating": 4.4
	},
	{
		"name": "Massimo Dutti",
		"opening_hours": {
			"open_now": true
		},
		"type": "store",
		"address": "Carrer de Pelai, 1-4, Barcelona",
		"rating": 4
	}
]